facility_id,amenity_type,name,lat,lon
454704042,hospital,QKMF Kamenica,42.5763475,21.580115
517589630,hospital,Klinika Kirurgjike,42.6443638,21.1623712
603647263,doctors,Ars Dent,42.6683926,21.1752568
612468828,doctors,Kirurgjia,42.6575805,21.1562458
683113552,hospital,Ambulanca Medicinale për Familje,41.991036,20.706698
941178965,hospital,Poliklinika GALAXY,42.6536811,21.1514818
1016618064,clinic,"Klinika Private ""Diagnoza""",42.470487,21.4644709
1213872829,doctors,Joni Dent (Dental),42.6490915,21.161875
1235769462,doctors,"Ordinanca Pediatrika ""RRITU""",42.6552941,21.178945
1590123337,hospital,Qedra Mjeksore,42.2247049,20.7415273
1688486048,clinic,Qendra e Shendetit Mental,42.6618424,20.2742939
1688500365,clinic,Qendra e Mjeksise Familjare,42.6605649,20.2834918
1699886331,clinic,Qendra e Mjekësisë Familjare,42.6705506,21.165047
1764242860,clinic,Qendra e Mjekësisë Familjare Dardani,42.6526257,21.1575312
1771378069,hospital,Instituti Kombëtar i Shëndetësisë Publike,42.6455482,21.1594896
1902392092,hospital,Dom Zdravlja,42.0543984,20.6952872
2051042129,clinic,QMF Tusuz,42.2002468,20.7142713
2162845597,hospital,Fakulteti i Mjeksise - Institutet A,42.6462858,21.160886
2162845598,hospital,Fakulteti i Mjeksise - Institutet B,42.6464288,21.159779
2162845599,hospital,Fakulteti i Stomatologjise/Klinika e Stomatologjise,42.6458399,21.1617977
2162845609,hospital,Klinika Interne,42.6448343,21.1620038
2162845617,hospital,Klinika Psikiatrike 2(e vjeter),42.6432019,21.1600412
2162845626,hospital,Klinika e Kirurgjise,42.6444757,21.1634351
2162845629,hospital,Klinika e Neurologjisë,42.6431303,21.1605899
2162845633,hospital,Klinika e Syve,42.6445863,21.1624228
2162845634,hospital,"Klinika per Vesh,Fyt dhe Hunde",42.6445371,21.1631697
2162845662,hospital,Qendra Obstetrike dhe Gjinekologjike,42.6445032,21.1642204
2162845811,hospital,Fizioterapi,42.644001,21.1637001
2162845813,hospital,Klinika e kirurgjise se femijeve,42.6441263,21.1636073
2162845817,doctors,Ordinanca Infektologjike,42.6485329,21.1626759
2162845819,hospital,Pediatria,42.6455841,21.164381
2162845825,hospital,014,42.645874,21.1650448
2235479191,clinic,Klinika Veterinare 'SPANA',42.6526214,21.1530374
2315664073,doctors,Instituti i Shëndetit Mendor,42.3722518,20.4369294
2379038203,hospital,Mitrovica Hospital South,42.8862018,20.873612
2557061124,doctors,Unknown,42.8883647,20.8661055
2582405886,hospital,Sheik Zahid,42.8247336,20.9644824
2631189964,hospital,Unknown,42.5931089,21.1391561
2708582039,clinic,Ordinanca Specialistike,42.4595503,21.4735003
2708586577,clinic,Frident,42.4643852,21.4698863
4113633889,hospital,Ambulanca,42.5675057,21.0737957
4152244690,doctors,Kirurgu i Fëmijëve,42.395666,20.4265846
4152246890,doctors,Xhafer Xhiha - Pulmolog,42.3956093,20.4266317
4187112792,doctors,Qendra Laserike e Syve KUBATI,42.6766769,21.1832032
4207207369,hospital,Medical center,42.454556,20.7192701
4303017112,clinic,Klinika Ime,42.6452982,21.1719327
4425626794,clinic,Qendra e Mjeksisë Familjare I,42.6681111,21.164088
4434217989,clinic,Ordinanca Vitas,42.6237715,20.8867681
4454942644,hospital,Ordinanca Vitas,42.6237715,20.8867681
4491316638,hospital,Spitali Fati im,42.3706195,20.4291145
4520820789,clinic,"""Italian Medical Group"" -I.M.G Poliklinika",42.3853588,21.163604
4542031089,clinic,Shtepi shendeti,42.3171289,21.1178231
4554331790,clinic,Gastromed AFM,42.6268012,21.1516723
4555641111,clinic,X Ray Dent,42.6622813,21.1640314
4558366987,clinic,Dr. Besim Guda,42.4711276,21.4645739
4558541605,clinic,Koci 207,42.4544239,21.4585372
4564921290,doctors,IHC diagnostic Center,42.6092783,21.1363338
4583095290,doctors,Unknown,42.2557131,20.6256054
4644991691,doctors,daja Beq ribar i vogel,42.5139399,21.0636858
4657159190,doctors,"A.S.P ""PEDIATRIA""",42.4546394,21.4658382
4680500693,doctors,Uromedica,42.6509891,21.1560478
4708489437,hospital,Ambulanca Adem Ukehaxhaj,42.5327194,20.2945761
4708808391,hospital,Klinika Amerikane - Dr Behar Kusari,42.6207507,21.1445445
4712553390,doctors,Dr. Hajriz H. Ibrahimi MD,42.4584484,21.4705918
4728920489,clinic,"Poliklinika ""VITA""",42.6447015,21.1710283
4733480421,doctors,INFUZIONI,42.6425731,21.1460967
4733488121,doctors,INFUZIONI,42.6427526,21.1541181
4741916940,clinic,Qendra e Mjeksise Familjare Sllatinë,42.5992204,21.0208851
4749498637,doctors,Eye Doctor,42.2194533,20.7429942
4757732426,clinic,Endokrinolog,42.6514176,21.1502281
4757737722,clinic,Elita Plus,42.6514411,21.1506145
4832481881,clinic,AMF GUSKA / Nr. 03,42.3624504,20.3921906
4832489749,clinic,AMF MULLIQ / Nr. 06,42.4365188,20.2675984
4832493444,clinic,AMF BEC / Nr. 07,42.4418743,20.4483588
4832496417,clinic,AMF GERGOC / Nr. 09,42.5092436,20.4557605
4832499421,clinic,AMF SHQIPONJE / Nr. 11,42.5431021,20.4806527
4832510782,clinic,AMF Blinisht / Nr. 14,42.3119954,20.478138
4832512859,clinic,AMF BISTRAZHIN / Nr. 15,42.3591964,20.5144636
4832512969,clinic,AMF nr. 16 Demjan,42.2969855,20.5223808
4840317571,clinic,Avicena,42.6470546,21.1494202
4922121921,doctors,Gastro,42.4591839,21.4726474
4983339921,doctors,Dr Arif Boshtraj,42.5368893,20.2908005
4984613321,clinic,Ambulanta,42.7746653,20.8337313
4985701221,hospital,MIM SPITALI,42.3667545,20.4638878
5008093121,clinic,Fati-im Medical Institute,42.6495748,21.1635757
5030492321,hospital,Gjinekologjia Jeta,42.3224702,21.3538964
5105599328,doctors,"Ordinanca pediatrike ""GRANITI""",42.6163451,20.5757772
5108584021,doctors,Liburn Dema,42.3701514,21.4829715
5163287821,doctors,Ambulanca Gjinekologjikr Kestrina,42.6489726,21.1565192
5168627022,doctors,Dajt e Jares Arisit Ries,42.5350211,21.005766
5177587829,clinic,QMF Komoran,42.5752273,20.8989745
5185661172,clinic,Unknown,42.8078419,20.8702261
5254898654,doctors,Ortodent,42.4581569,21.4690952
5267756923,doctors,Unknown,42.1337027,20.8057889
5295465621,clinic,Ordinanca “TRURI”,42.3535214,21.171324
5302792221,hospital,Emergjenca,42.4580966,21.4629153
5302971722,hospital,Otrila Hospital,42.6094499,21.1358487
5398472322,hospital,Ambulanca e Çabrës,42.9019375,20.7790063
5410191722,clinic,Meti Dent pajisje stomatologjike,42.2143043,20.7328389
5447504303,doctors,Fryti,42.3207228,20.6333606
5497656122,clinic,Qendra e Mjeksis Familjare Bare,42.9518026,20.9655488
5515734021,hospital,Klinika AURA,42.6435674,21.1552789
5543730624,clinic,ambulanta,41.9444157,20.670212
5557759021,doctors,Xhevdet Quni,42.2316678,21.2588225
5567447621,doctors,Genesis,42.6490839,21.1564237
5574732621,hospital,Spitali Amerikan Prishtine,42.6425643,21.1579683
5595325721,hospital,Spitali Rajonal Graqanicë,42.5836695,21.2081857
5598448022,clinic,Bel Medic International,42.602196,21.1911748
5613282021,hospital,Millenium Hospital,42.589907,21.1291379
5633598124,doctors,Fizio Plus-Ordinanca per Fizioterapi dhe Rehabilitim,42.6614301,20.277896
5687205923,doctors,Kosovo,42.4544906,21.504241
5737551705,doctors,Dr Musli Beqiraj,42.458282,21.4705977
5739626921,doctors,Unknown,42.4282473,21.4535823
5819844395,hospital,Spitali Aloka,42.6294691,21.1489558
5840134188,doctors,“FENIKSI” Ordinanca Psikiatrike,42.4292522,21.4541781
5853536585,doctors,doktorri syve Kubati,42.2202755,20.7427322
5859608287,clinic,Valza-Med,42.3149608,20.635827
5862362985,doctors,Ordinanca gjinekologjike obstetrike NEVUS,42.6634136,21.152592
5898684885,clinic,Ambulanca për terapi fizikale dhe rehabilitim “REA”,42.2319891,21.2552843
5911592515,doctors,Bioinvest,42.65156,21.1667248
5944002087,doctors,Dr.Nexhdet Shala,42.6572969,20.2902847
5974475150,doctors,Poliklinika CT Scanner,42.6507475,21.162062
6139192986,hospital,otorinola,42.2195532,20.7276137
6139222085,hospital,Meti-Dent,42.2196171,20.7275261
6142833085,clinic,Dr. Ramushi,42.6482891,21.1729679
6172491088,clinic,Dr Xhevat Kurhasani,42.6568437,20.2912478
6181822485,doctors,Gastrohep,42.6585675,20.2956579
6207525485,hospital,Spitali Lindja,42.6290464,21.1565998
6281396868,hospital,American Hospital,42.6561315,21.1564376
6305196007,hospital,Klinika Infektive,42.644702,21.1611097
6305275259,hospital,Klinika Emergjente,42.6452032,21.1620699
6316301985,clinic,"Enti Poliklinik Ambulantor për Vesh, Fyt dhe Hundë",42.6541084,21.1712451
6331347885,clinic,Venomed Plus,42.6574467,21.1456776
6389648227,doctors,Akustika,42.6429545,21.1667376
6393343385,clinic,Pediatri,42.6546114,21.1713588
6394900185,clinic,Ambulanca psikologjisë klinike Visar A.Sadiku B.I,42.6431731,21.1670449
6444022641,clinic,Ordinancë Private,42.3637745,20.7400405
6497078008,doctors,Psikiatër OSP,42.4242062,21.4839597
6514662985,clinic,KLLOKOQI ESTETIKA,42.6536289,21.1910924
6515281589,doctors,PRORHEUMA BLLACË,42.4163561,20.8631805
6515281590,doctors,PRORHEUMA PRISHTIN,42.6454646,21.1710333
6541947085,clinic,Qendra e mjekësis familjare,42.6567357,20.2986404
6665826092,clinic,Ordinanca Mëma,42.6549196,21.1707079
6690543186,doctors,Poliklinika Jona,42.656608,21.1813148
6729010985,doctors,Kiropraktika,42.6420616,21.1702609
6730588585,clinic,Unknown,42.6454555,21.1703218
6751183663,hospital,Dom zdravlja Donja Gusterica,42.5449135,21.1782112
6805305387,doctors,Lendrit Spahiu,42.3903366,20.4260424
6815499189,clinic,Dom Zdravlja,43.0537864,20.8092758
6925425785,doctors,Medica +,42.653611,21.1593505
6933087991,doctors,Ariana,42.6491156,21.163174
6937494024,clinic,Ordinanca Pediatrike Jeta,42.3802587,21.1651391
7006958185,clinic,Miliona Aesthetic,42.6521806,21.1591148
7054452813,hospital,Barnatore Joni-Med,42.7476495,20.7877544
7086812685,clinic,Poliklinika Zatriqi,42.6535471,21.1705369
7103246432,clinic,AMF Vragoli,42.6112226,21.0566551
7125105185,doctors,Brikena and Teuta Dent,42.6536707,21.1599241
7178772085,clinic,Physio De2,42.5264065,21.1190251
7256054908,hospital,Unknown,42.9185016,21.1956977
7329071311,clinic,Poliklinika Shpeb Med,42.5256343,21.1220459
7329123234,hospital,Unknown,42.2469319,21.2180259
7329201531,doctors,Xhelal Shatri kiropraktikë,42.7829903,20.4851483
7340136402,clinic,Mjekësi popullore Halla Halime,42.6775901,20.9039447
7340140834,hospital,Unknown,42.2980687,21.2291941
7340225502,clinic,QMF- Qendër e Mjeksisë Familjare,42.6642557,20.8471753
7340256886,clinic,QMF Kaçaniki Vjetër,42.2993489,21.2291821
7340305619,hospital,Unknown,42.2710052,21.1857531
7340470124,clinic,AMF- Ambulancë e Mjeksisë Familjare,42.6024886,21.6661778
7340485517,clinic,Poliklinika Diagnostika,42.7800077,20.4873238
7340501045,hospital,Unknown,42.1932261,21.2343303
7340514846,hospital,Unknown,42.8469771,21.0559899
7340527275,hospital,Unknown,42.2718014,21.2494254
7341705336,clinic,AMF- Ambulancë e Mjeksisë Familjare,42.6500855,20.7169585
7342661559,hospital,Qendra e Mjekesise Sportive,42.6615847,21.1564286
7342674540,clinic,AMF Kuki,42.1007367,20.7134932
7342682483,clinic,AMF- Ambulancë e Mjeksisë Familjare,42.8357821,20.9185695
7342690030,clinic,AMF Leshan,42.3278967,20.7811305
7342694414,clinic,AMF Bob,42.2305093,21.2487897
7342714950,clinic,AMF Dobrushtë,42.1808649,20.5904442
7342716519,clinic,AMF- Ambulancë e Mjeksisë Familjare,42.2558599,20.5753514
7342739946,clinic,AMF Dabishec,42.735048,21.4408306
7342743188,clinic,AMF Kraishta,42.4983015,21.050141
7342758628,clinic,AMF- Ambulancë e Mjeksisë Familjare,42.4195381,20.8023307
7342759334,clinic,Poliklinika Stomatologjike,42.6610656,20.272867
7342765232,clinic,AMF- Ambulancë e Mjeksisë Familjare,42.3777125,21.2760571
7342780785,clinic,AMF Barilevë,42.7534244,21.1108913
7342790599,clinic,QMF Bellobradi,42.1193428,20.6884065
7342813974,clinic,QMF Rizniqi,42.5206026,20.3497764
7342832300,clinic,QMF Ujëmir,42.6147675,20.697282
7342837629,clinic,AMF Kosavca,42.0936923,20.6981489
7342868885,clinic,AMF Obranqe,42.9154586,21.1706988
7344171602,clinic,Klinika PREMIUM+,42.3761012,20.4363805
7367390235,doctors,Euromed,42.6398744,21.1026576
7393404785,clinic,Ambulanca Echokirurgjike Loni,42.6662138,21.1587621
7483316285,doctors,Pediatër Selim Thaqi,42.6618479,21.1752388
7487316385,clinic,Poliklinika Echo Scan,42.6482791,21.1729278
7511431167,hospital,QKMF Korishë,42.2577969,20.7943736
7640683885,doctors,Ortopedia Dr. Ceni,42.647367,21.1705953
7671613133,clinic,Poliklinika Dafina,42.6784204,21.1712974
7694095394,clinic,Unknown,42.6432306,21.1669264
7736673085,clinic,Unknown,42.6575568,21.1506727
8048698785,doctors,Ordinanca Fizioterapeutike Igallo,42.6662862,21.1558951
8059589885,clinic,Unknown,42.6511782,21.168657
8059596085,clinic,Unknown,42.6510253,21.1685287
8104158781,clinic,Dr. Flamur Marku,42.395247,20.4219903
8104381160,clinic,Arti-MED,42.3704162,20.4361667
8117906718,clinic,Derma D,42.6624315,21.1676348
8120728948,clinic,ORL Medicus,42.3691781,20.4342456
8130214417,clinic,KLINIKA METROPOLIS,42.652038,21.1771337
8180424018,clinic,Ordinanca Urologjike “Kaçaniku”,42.2343226,21.2558285
8256034891,doctors,Zenel Shatri,42.7407414,20.4766389
8278383917,hospital,Spitali FATI IM,42.6117869,21.141905
8293586417,clinic,FIZIO PLUS - Fizioterapi dhe Rehabilitim,42.6613998,20.2779447
8378497064,hospital,Unknown,42.4092555,20.8712828
8440647618,clinic,Qendra e Mjekësisë Familjare,42.3660569,20.7426278
8529491068,hospital,Klinika për Covid-19 (1),42.6445538,21.1610674
8551674199,hospital,Ordinanca Gjinekologjike LINDA,42.4859018,20.7382933
8574227189,clinic,Prishtina Medical Center,42.6444645,21.1558003
8622788202,hospital,Uro-Med,42.3811219,21.1535989
8631324317,clinic,Unknown,42.6504059,21.1589977
8721956517,clinic,Unknown,42.4853806,21.2163652
8798295439,clinic,Bardhi Med,42.2080593,20.737191
8799497851,clinic,Bardhi Med,42.2080659,20.7373817
8801763880,clinic,Biokomia,42.2060065,20.7311031
8941089260,hospital,Bolnica Kosovska Mitrovica,42.8922909,20.8596024
8941089261,hospital,Spitali Royal Medical,42.5994001,21.1302668
8984173217,clinic,Medical Center,42.6414715,21.1348993
8993585518,hospital,Ambulanta e Fshatit Breznicë,42.7778517,21.0893764
9011052142,doctors,Dr. Jahir I. Lajqi,42.6610267,20.2838815
9017873374,doctors,Dr. Iliriana,42.6607778,20.2946425
9017926025,doctors,Unknown,42.65593,20.2874678
9023481024,doctors,Dr. Afërdita Selmanaj,42.6571534,20.2906257
9094507918,doctors,echo scan,42.5245091,21.1172684
9103439124,doctors,Unknown,42.3788349,20.4345316
9113456106,clinic,Olive Medical & Laboratory,42.645195,21.1556687
9113580728,hospital,Spitali Olive,42.5668551,21.1281367
9113580729,hospital,Bahceci Hospital,42.5670532,21.1294215
9286911767,doctors,Dr. Berat Krasniqi - Gjinekolog,42.6510671,21.1674482
9287610599,doctors,ORTOPEDIATRIA,42.8251317,20.9608325
9355755623,clinic,QMF,42.6167218,20.3047689
9444148699,clinic,AMF Fushë Kosova 2,42.6419963,21.0965295
9623010751,hospital,Emergjenca,42.2155499,20.7265955
9674387917,clinic,OSP Arbora,42.6460553,21.1524249
9757283127,clinic,Dr. Memli,42.6495761,21.1636366
9853733717,clinic,Trina,42.2161429,20.7362155
9861154617,doctors,Confident,42.375874,20.4364349
9873273247,clinic,Target Clinic,42.5233473,21.1179259
9891030094,clinic,Emergjenca,42.2038606,20.7299184
9893255118,clinic,Vital Diagnostika,42.6612601,20.276075
9900551418,clinic,HOGA Clinic,42.6573905,21.1479075
9909155105,clinic,AMF - Qendra e Studentëve,42.65438,21.1653401
9916310874,doctors,Okulistika;Dr. Ardian Shabani  Okulistika,42.4603209,21.4713957
9949198417,clinic,Laboratoy Olive,42.4603353,21.4657005
9951125417,hospital,QKMF Kryesore,42.4585843,21.4657071
9951614817,clinic,Avicena,42.4598308,21.4669178
9955353056,hospital,European Clinic Kosova,42.3701039,20.4335593
9966055717,clinic,Ars Medica,42.6231212,21.1644664
9979254400,hospital,Bolnica,42.6175832,21.1469556
10003933735,hospital,Anaderm Aesthetic Surgery Hospital,42.6315001,21.1483692
10032270315,clinic,Jehonarcis- Ordinanca Specialistike Internistike,42.8473759,20.9426814
10034277117,clinic,Jora med,42.6604079,21.1422096
10034850617,clinic,Poliklinika Vital Diagnostika,42.6612715,20.2760381
10119306017,clinic,ARS MEDICA,42.6231029,21.1644431
10244038209,doctors,fitoterapia,42.4369267,21.0383152
10250555436,clinic,Ordinanca Fëmiju Rrahim Merovci,42.8324044,20.9640593
10303003505,doctors,Fetal Medicine,42.6522673,21.177344
10536295062,clinic,OBS Blemedika,42.8263016,20.9696636
10554949010,doctors,Ordinanca Kardiologjia - Dr.Luan Rexhëbogaj,42.6612619,20.2776827
10602410605,clinic,Agaj-Medical - Shërbime Shëndetësore,42.642881,21.1670512
10704997705,doctors,Ordinanca “RH Pediatria” Dr.Rexhep Hoxha,42.2351995,20.7111156
10705003105,doctors,Ordinanca “RH Pediatria” Dr.Rexhep Hoxha,42.2350592,20.7112876
10723114305,clinic,Dr Xhevat Kurhasani,42.6568264,20.2911848
10731056105,clinic,Fizio Plus,42.6614061,20.2776168
10731767311,clinic,Laboratori Preventiva,42.7484191,20.7873317
10755394976,doctors,Poliklinika Endomedica,42.645359,21.1744644
10765349595,doctors,Olive medical,42.3595437,20.8119462
10796920106,clinic,Koshimed,42.3705756,20.4349512
10796920109,clinic,Klinika Lege Artis,42.3707975,20.4348935
10860815405,hospital,Poliklinika “AVA” - dental & medical clinic,42.2067224,20.720553
10861061505,clinic,Ambulanca Specialistike Kirurgjike ‘’ KIRURGJIA’’ Dr Halil Tanaj mr sc PhDc Kirurg i përgjithshëm endoskopist,42.64391,21.1503403
11016395651,doctors,Dr. Recep Rada,42.2121797,20.7441862
11017461082,doctors,Dr. Adem Kafexholli,42.2183002,20.7478429
11055353192,hospital,Dream Hospital - Dr. Bajrami,42.3759063,21.1585734
11076795705,clinic,Klinika Premium+,42.3760883,20.4363766
11076795706,clinic,Klinika Premium+,42.3761222,20.4363708
11110353706,doctors,Selami Koci,42.4546059,21.4586067
11110385005,clinic,Bio Lab,42.4465753,21.4597048
11134772246,clinic,Ordinanca Logopedike Hope,42.6467319,21.1505656
11134772264,clinic,Avicena ORL Clinic,42.6467622,21.1492918
11134772270,doctors,PrimaLux,42.6470456,21.1494136
11141150106,clinic,GASTRO CLINIC CENTER,42.637657,21.1526469
11143096295,clinic,Laserway,42.6593444,21.1608128
11143096302,clinic,Truelife Clinic,42.6595923,21.1610333
11180688337,clinic,Shkumbini SB - Dr. Selajdin Boshnajku,42.3733054,20.4340904
11195684126,clinic,Fizioterapia Physio Time,42.4686362,21.4755721
11215379865,clinic,Leta,42.3704925,20.4303663
11215379873,clinic,Jonilab,42.3697481,20.4324072
11215379875,clinic,Joni,42.3703291,20.4317784
11215379883,clinic,Infermeria,42.3701859,20.4338385
11215379885,clinic,Besi,42.3700396,20.4316984
11215379887,clinic,Femina,42.3705634,20.4316861
11215379888,clinic,3L,42.3699134,20.4314176
11215379901,clinic,B/Med,42.3717749,20.4297486
11215379903,clinic,Ordinanaca Infermierike Ylli,42.3710074,20.4299918
11215379904,clinic,Fla-Med,42.3709139,20.4300171
11215379905,clinic,Shëndeti,42.3706749,20.4301537
11215379907,clinic,Labochem,42.3702842,20.4300535
11215379908,clinic,DLD-Labor,42.3702437,20.4299796
11215379911,clinic,Alma Med,42.3696341,20.4313425
11234623124,doctors,Ordinanca Gjinekologjike Obstetrike NART GYNO,42.6391382,21.1049811
11247530737,clinic,Hoxhe Musli Zymberi,42.6792412,20.4360788
11368649603,hospital,Mjekësia Nukleare,42.6450947,21.1623041
11457645298,clinic,Qendra e Mjekësisë Familjare në Bob,42.2274016,21.2524343
11461446531,hospital,Unknown,42.2090818,21.1963931
11461446533,hospital,Unknown,42.2808182,21.180489
11510710448,clinic,Avicena KS,42.6555008,21.1469331
11537998369,hospital,RADIX center,42.4433707,20.9740959
11688916453,hospital,Dr. Kushtrim Shala - Kardiokirurg,42.6427785,21.1578909
11924833054,clinic,My Clinic,42.6415659,21.1058361
12117603001,clinic,Poliklinika NATAL,42.6583976,21.1255244
12163254057,clinic,Olive,42.6489992,21.1517043
12271003483,clinic,Kubati,42.6521409,21.1765942
12627315003,clinic,Sapphire Med Kosova,42.6437537,21.1558944
12789855879,hospital,Dental Praxis,42.3638475,20.8336428
12862704331,doctors,Labiohem,42.8232442,20.9694146
12906137094,clinic,Ndihma e Parë,42.5752153,21.0295841
12993109711,clinic,Alora Health and Beauty Center,42.6453235,21.1703354
13088626864,clinic,Smile,42.6554503,21.1809551
13197779997,doctors,Alergjia,42.5212653,21.1191076
13372027257,hospital,Unknown,42.789814,21.1503765
